$GPGGA,024131.194,8960.0000,N,00000.0000,E,0,0,,137.0,M,13.0,M,,*4A
$GPGSA,A,1,,,,,,,,,,,,,99.99,99.99,99.99*30
$GPGSV,2,1,8,07,,,34,03,,,36,11,,,35,13,,,36*45
$GPGSV,2,2,8,23,,,36,19,,,38,16,,,34,06,,,32*41
$GPRMC,024131.194,V,8960.0000,N,00000.0000,E,0.000,0.00,090180,,,N*48
$GPVTG,0.00,T,,M,0.000,N,0.000,K,N*32
$GPGGA,024132.194,8960.0000,N,00000.0000,E,0,0,,137.0,M,13.0,M,,*49
$GPGSA,A,1,,,,,,,,,,,,,99.99,99.99,99.99*30
$GPGSV,2,1,8,07,,,33,03,,,36,11,,,34,13,,,36*43
$GPGSV,2,2,8,23,,,35,19,,,38,16,,,33,06,,,32*45
$GPRMC,024132.194,V,8960.0000,N,00000.0000,E,0.000,0.00,090180,,,N*4B
$GPVTG,0.00,T,,M,0.000,N,0.000,K,N*32
$GPGGA,024133.093,8960.0000,N,00000.0000,E,0,0,,137.0,M,13.0,M,,*4E
$GPGSA,A,1,,,,,,,,,,,,,99.99,99.99,99.99*30
$GPGSV,2,1,8,07,,,33,03,,,36,11,,,34,13,,,36*43
$GPGSV,2,2,8,23,,,35,19,,,38,16,,,33,06,,,33*44
$GPRMC,024133.093,V,8960.0000,N,00000.0000,E,0.000,0.00,090180,,,N*4C
$GPVTG,0.00,T,,M,0.000,N,0.000,K,N*32
$GPGGA,024134.093,8960.0000,N,00000.0000,E,0,0,,137.0,M,13.0,M,,*49
$GPGSA,A,1,,,,,,,,,,,,,99.99,99.99,99.99*30
$GPGSV,2,1,8,07,,,33,03,,,35,11,,,34,13,,,36*40
$GPGSV,2,2,8,23,,,35,19,,,38,16,,,33,06,,,33*44
$GPRMC,024134.093,V,8960.0000,N,00000.0000,E,0.000,0.00,090180,,,N*4B
$GPVTG,0.00,T,,M,0.000,N,0.000,K,N*32
$GPGGA,024135.093,8960.0000,N,00000.0000,E,0,0,,137.0,M,13.0,M,,*48
$GPGSA,A,1,,,,,,,,,,,,,99.99,99.99,99.99*30
$GPGSV,2,1,8,07,,,33,03,,,35,11,,,34,13,,,36*40
$GPGSV,2,2,8,23,,,34,19,,,37,16,,,33,06,,,33*4A
$GPRMC,024135.093,V,8960.0000,N,00000.0000,E,0.000,0.00,090180,,,N*4A
$GPVTG,0.00,T,,M,0.000,N,0.000,K,N*32
$GPGGA,024136.093,8960.0000,N,00000.0000,E,0,0,,137.0,M,13.0,M,,*4B
$GPGSA,A,1,,,,,,,,,,,,,99.99,99.99,99.99*30
$GPGSV,2,1,8,07,,,33,03,,,35,11,,,34,13,,,36*40
$GPGSV,2,2,8,23,,,34,19,,,37,16,,,33,06,,,33*4A
$GPRMC,024136.093,V,8960.0000,N,00000.0000,E,0.000,0.00,090180,,,N*49
$GPVTG,0.00,T,,M,0.000,N,0.000,K,N*32
$GPGGA,024137.093,8960.0000,N,00000.0000,E,0,0,,137.0,M,13.0,M,,*4A
$GPGSA,A,1,,,,,,,,,,,,,99.99,99.99,99.99*30
$GPGSV,2,1,8,07,,,33,03,,,35,11,,,34,13,,,36*40
$GPGSV,2,2,8,23,,,34,19,,,37,16,,,33,06,,,33*4A
$GPRMC,024137.093,V,8960.0000,N,00000.0000,E,0.000,0.00,090180,,,N*48
$GPVTG,0.00,T,,M,0.000,N,0.000,K,N*32
$GPGGA,024138.093,8960.0000,N,00000.0000,E,0,0,,137.0,M,13.0,M,,*45
$GPGSA,A,1,,,,,,,,,,,,,99.99,99.99,99.99*30
$GPGSV,2,1,8,07,,,33,03,,,35,11,,,34,13,,,36*40
$GPGSV,2,2,8,23,,,34,19,,,37,16,,,33,06,,,33*4A
$GPRMC,024138.093,V,8960.0000,N,00000.0000,E,0.000,0.00,090180,,,N*47
$GPVTG,0.00,T,,M,0.000,N,0.000,K,N*32
$GPGGA,024139.093,8960.0000,N,00000.0000,E,0,0,,137.0,M,13.0,M,,*44
$GPGSA,A,1,,,,,,,,,,,,,99.99,99.99,99.99*30
$GPGSV,2,1,8,07,,,33,03,,,35,11,,,34,13,,,36*40
$GPGSV,2,2,8,23,,,34,19,,,37,16,,,33,06,,,34*4D
$GPRMC,024139.093,V,8960.0000,N,00000.0000,E,0.000,0.00,090180,,,N*46
$GPVTG,0.00,T,,M,0.000,N,0.000,K,N*32
$GPGGA,024139.304,8960.0000,N,00000.0000,E,0,0,,137.0,M,13.0,M,,*49
$GPGSA,A,1,,,,,,,,,,,,,99.99,99.99,99.99*30
$GPGSV,2,1,8,07,,,33,03,,,35,11,,,34,13,,,36*40
$GPGSV,2,2,8,23,,,34,19,,,37,16,,,33,06,,,34*4D
$GPRMC,024139.304,V,8960.0000,N,00000.0000,E,0.000,0.00,090180,,,N*4B
$GPVTG,0.00,T,,M,0.000,N,0.000,K,N*32
$GPGGA,024140.304,8960.0000,N,00000.0000,E,0,0,,137.0,M,13.0,M,,*47
$GPGSA,A,1,,,,,,,,,,,,,99.99,99.99,99.99*30
$GPGSV,2,1,8,07,,,33,03,,,35,11,,,34,13,,,36*40
$GPGSV,2,2,8,23,,,34,19,,,37,16,,,33,06,,,34*4D
$GPRMC,024140.304,V,8960.0000,N,00000.0000,E,0.000,0.00,090180,,,N*45
$GPVTG,0.00,T,,M,0.000,N,0.000,K,N*32
$GPGGA,024141.304,8960.0000,N,00000.0000,E,0,0,,137.0,M,13.0,M,,*46
$GPGSA,A,1,,,,,,,,,,,,,99.99,99.99,99.99*30
$GPGSV,2,1,8,07,,,33,03,,,36,11,,,34,13,,,36*43
$GPGSV,2,2,8,23,,,34,19,,,37,16,,,33,06,,,34*4D
$GPRMC,024141.304,V,8960.0000,N,00000.0000,E,0.000,0.00,090180,,,N*44
$GPVTG,0.00,T,,M,0.000,N,0.000,K,N*32
$GPGGA,024142.304,8960.0000,N,00000.0000,E,0,0,,137.0,M,13.0,M,,*45
$GPGSA,A,1,,,,,,,,,,,,,99.99,99.99,99.99*30
$GPGSV,2,1,8,07,,,35,03,,,38,11,,,36,13,,,38*47
$GPGSV,2,2,8,23,,,36,19,,,39,16,,,35,06,,,36*45
$GPRMC,024142.304,V,8960.0000,N,00000.0000,E,0.000,0.00,090180,,,N*47
$GPVTG,0.00,T,,M,0.000,N,0.000,K,N*32
$GPGGA,024143.304,8960.0000,N,00000.0000,E,0,0,,137.0,M,13.0,M,,*44
$GPGSA,A,1,,,,,,,,,,,,,99.99,99.99,99.99*30
$GPGSV,2,1,8,07,,,36,03,,,39,11,,,37,13,,,39*45
$GPGSV,2,2,8,23,,,37,19,,,40,16,,,36,06,,,37*48
$GPRMC,024143.304,V,8960.0000,N,00000.0000,E,0.000,0.00,090180,,,N*46
$GPVTG,0.00,T,,M,0.000,N,0.000,K,N*32
$GPGGA,024144.304,8960.0000,N,00000.0000,E,0,0,,137.0,M,13.0,M,,*43
$GPGSA,A,1,,,,,,,,,,,,,99.99,99.99,99.99*30
$GPGSV,2,1,8,07,,,37,03,,,40,11,,,38,13,,,40*4B
$GPGSV,2,2,8,23,,,38,19,,,41,16,,,37,06,,,37*47
$GPRMC,024144.304,V,8960.0000,N,00000.0000,E,0.000,0.00,090180,,,N*41
$GPVTG,0.00,T,,M,0.000,N,0.000,K,N*32
$GPGGA,024145.104,8960.0000,N,00000.0000,E,0,0,,137.0,M,13.0,M,,*40
$GPGSA,A,1,,,,,,,,,,,,,99.99,99.99,99.99*30
$GPGSV,2,1,8,07,,,38,03,,,41,11,,,39,13,,,41*45
$GPGSV,2,2,8,23,,,39,19,,,42,16,,,37,06,,,38*4A
$GPRMC,024145.104,V,8960.0000,N,00000.0000,E,0.000,0.00,090180,,,N*42
$GPVTG,0.00,T,,M,0.000,N,0.000,K,N*32
$GPGGA,024146.104,8960.0000,N,00000.0000,E,0,0,,137.0,M,13.0,M,,*43
$GPGSA,A,1,,,,,,,,,,,,,99.99,99.99,99.99*30
$GPGSV,2,1,8,07,,,39,03,,,41,11,,,39,13,,,42*47
$GPGSV,2,2,8,23,,,40,19,,,42,16,,,38,06,,,38*4B
$GPRMC,024146.104,V,8960.0000,N,00000.0000,E,0.000,0.00,090180,,,N*41
$GPVTG,0.00,T,,M,0.000,N,0.000,K,N*32
$GPGGA,024147.104,8960.0000,N,00000.0000,E,0,0,,137.0,M,13.0,M,,*42
$GPGSA,A,1,,,,,,,,,,,,,99.99,99.99,99.99*30
$GPGSV,3,1,9,07,,,39,03,,,41,11,,,39,13,,,42*47
$GPGSV,3,2,9,23,,,40,19,,,42,16,,,38,06,,,38*4B
$GPGSV,3,3,9,01,,,34*46
$GPRMC,024147.104,V,8960.0000,N,00000.0000,E,0.000,0.00,090180,,,N*40
$GPVTG,0.00,T,,M,0.000,N,0.000,K,N*32
$GPGGA,024148.104,8960.0000,N,00000.0000,E,0,0,,137.0,M,13.0,M,,*4D
$GPGSA,A,1,,,,,,,,,,,,,99.99,99.99,99.99*30
$GPGSV,3,1,9,07,,,39,03,,,41,11,,,39,13,,,42*47
$GPGSV,3,2,9,23,,,40,19,,,42,16,,,38,06,,,38*4B
$GPGSV,3,3,9,01,,,36*44
$GPRMC,024148.104,V,8960.0000,N,00000.0000,E,0.000,0.00,090180,,,N*4F
$GPVTG,0.00,T,,M,0.000,N,0.000,K,N*32
$GPGGA,024149.104,8960.0000,N,00000.0000,E,0,0,,137.0,M,13.0,M,,*4C
$GPGSA,A,1,,,,,,,,,,,,,99.99,99.99,99.99*30
$GPGSV,3,1,10,07,,,39,03,,,40,11,,,39,13,,,41*7D
$GPGSV,3,2,10,23,,,39,19,,,42,16,,,38,06,,,38*7D
$GPGSV,3,3,10,01,,,35,31,,,30*7E
$GPRMC,024149.104,V,8960.0000,N,00000.0000,E,0.000,0.00,090180,,,N*4E
$GPVTG,0.00,T,,M,0.000,N,0.000,K,N*32
$GPGGA,024150.104,8960.0000,N,00000.0000,E,0,0,,137.0,M,13.0,M,,*44
$GPGSA,A,1,,,,,,,,,,,,,99.99,99.99,99.99*30
$GPGSV,3,1,10,07,,,38,03,,,39,11,,,39,13,,,41*72
$GPGSV,3,2,10,23,,,39,19,,,42,16,,,38,06,,,38*7D
$GPGSV,3,3,10,01,,,35,31,,,33*7D
$GPRMC,024150.104,V,8960.0000,N,00000.0000,E,0.000,0.00,090180,,,N*46
$GPVTG,0.00,T,,M,0.000,N,0.000,K,N*32
$GPGGA,024151.087,2306.7041,N,11424.5540,E,0,5,,110.2,M,-1.5,M,,*52
$GPGSA,A,1,07,03,11,13,19,,,,,,,,1.85,1.59,0.95*03
$GPGSV,3,1,10,07,,,38,03,,,39,11,,,39,13,,,40*73
$GPGSV,3,2,10,23,,,39,19,,,42,16,,,38,06,,,38*7D
$GPGSV,3,3,10,01,,,34,31,,,32*7D
$GPRMC,024151.087,V,2306.7041,N,11424.5540,E,0.054,0.00,050912,,,N*47
$GPVTG,0.00,T,,M,0.054,N,0.101,K,N*33
$GPGGA,024152.087,2306.7034,N,11424.5558,E,1,5,1.59,107.1,M,-1.5,M,,*4D
$GPGSA,A,3,07,03,11,13,19,,,,,,,,1.85,1.59,0.95*01
$GPGSV,3,1,11,19,84,330,42,03,54,025,39,13,46,271,40,11,38,181,39*7F
$GPGSV,3,2,11,07,31,326,38,193,,,,23,,,39,16,,,38*7D
$GPGSV,3,3,11,06,,,38,01,,,34,31,,,34*77
$GPRMC,024152.087,A,2306.7034,N,11424.5558,E,0.003,0.00,050912,,,A*55
$GPVTG,0.00,T,,M,0.003,N,0.005,K,A*3B
$GPGGA,024154.000,2306.7038,N,11424.5556,E,1,5,1.59,107.5,M,-1.5,M,,*42
$GPGSA,A,3,07,03,11,13,19,,,,,,,,1.85,1.59,0.95*01
$GPGSV,3,1,11,19,84,330,42,03,54,025,39,13,46,271,40,11,38,181,39*7F
$GPGSV,3,2,11,07,31,326,38,193,,,,23,,,39,16,,,38*7D
$GPGSV,3,3,11,06,,,37,01,,,34,31,,,34*78
$GPRMC,024154.000,A,2306.7038,N,11424.5556,E,0.047,0.00,050912,,,A*5E
$GPVTG,0.00,T,,M,0.047,N,0.087,K,A*31
$GPGGA,024155.000,2306.7041,N,11424.5559,E,1,5,1.59,106.2,M,-1.5,M,,*44
$GPGSA,A,3,07,03,11,13,19,,,,,,,,1.85,1.59,0.95*01
$GPGSV,3,1,11,19,84,330,41,03,54,025,39,13,46,271,40,11,38,181,39*7C
$GPGSV,3,2,11,07,31,326,38,193,,,,23,,,39,16,,,38*7D
$GPGSV,3,3,11,06,,,37,01,,,34,31,,,33*7F
$GPRMC,024155.000,A,2306.7041,N,11424.5559,E,0.043,0.00,050912,,,A*5A
$GPVTG,0.00,T,,M,0.043,N,0.080,K,A*32
$GPGGA,024156.000,2306.7042,N,11424.5557,E,1,5,1.59,105.2,M,-1.5,M,,*49
$GPGSA,A,3,07,03,11,13,19,,,,,,,,1.85,1.59,0.95*01
$GPGSV,3,1,11,19,84,330,41,03,54,025,39,13,46,271,40,11,38,181,39*7C
$GPGSV,3,2,11,07,31,326,38,193,,,,23,,,39,16,,,38*7D
$GPGSV,3,3,11,06,,,37,01,,,34,31,,,33*7F
$GPRMC,024156.000,A,2306.7042,N,11424.5557,E,0.000,0.00,050912,,,A*53
$GPVTG,0.00,T,,M,0.000,N,0.000,K,A*3D
$GPGGA,024157.000,2306.7043,N,11424.5554,E,1,5,1.59,104.6,M,-1.5,M,,*4F
$GPGSA,A,3,07,03,11,13,19,,,,,,,,1.85,1.59,0.95*01
$GPGSV,3,1,11,19,84,330,41,03,54,025,39,13,46,271,40,11,38,181,39*7C
$GPGSV,3,2,11,07,31,326,38,193,,,32,23,,,39,16,,,38*7C
$GPGSV,3,3,11,06,,,37,01,,,34,31,,,33*7F
$GPRMC,024157.000,A,2306.7043,N,11424.5554,E,0.000,0.00,050912,,,A*50
$GPVTG,0.00,T,,M,0.000,N,0.000,K,A*3D
$GPGGA,024158.000,2306.7040,N,11424.5540,E,1,7,1.17,106.4,M,-1.5,M,,*4E
$GPGSA,A,3,07,03,11,13,23,19,16,,,,,,1.49,1.17,0.92*0A
$GPGSV,3,1,11,19,84,330,41,03,54,025,39,13,46,271,40,23,42,220,38*79
$GPGSV,3,2,11,11,38,181,39,16,31,049,38,07,31,326,38,193,,,33*70
$GPGSV,3,3,11,06,,,37,01,,,34,31,,,33*7F
$GPRMC,024158.000,A,2306.7040,N,11424.5540,E,0.000,0.00,050912,,,A*59
$GPVTG,0.00,T,,M,0.000,N,0.000,K,A*3D
$GPGGA,024159.000,2306.7040,N,11424.5540,E,1,7,1.17,106.4,M,-1.5,M,,*4F
$GPGSA,A,3,07,03,11,13,23,19,16,,,,,,1.49,1.17,0.92*0A
$GPGSV,3,1,11,19,84,330,41,03,54,025,39,13,46,271,40,23,42,220,38*79
$GPGSV,3,2,11,11,38,181,39,16,31,049,37,07,31,326,38,193,,,34*78
$GPGSV,3,3,11,06,,,37,01,,,34,31,,,33*7F
$GPRMC,024159.000,A,2306.7040,N,11424.5540,E,0.000,0.00,050912,,,A*58
$GPVTG,0.00,T,,M,0.000,N,0.000,K,A*3D
$GPGGA,024200.000,2306.7040,N,11424.5540,E,1,7,1.17,106.4,M,-1.5,M,,*40
$GPGSA,A,3,07,03,11,13,23,19,16,,,,,,1.49,1.17,0.92*0A
$GPGSV,3,1,11,19,84,330,41,03,54,025,39,13,46,271,40,23,42,220,38*79
$GPGSV,3,2,11,11,38,181,39,16,31,049,37,07,31,326,38,193,,,34*78
$GPGSV,3,3,11,06,,,37,01,,,34,31,,,33*7F
$GPRMC,024200.000,A,2306.7040,N,11424.5540,E,0.000,0.00,050912,,,A*57
$GPVTG,0.00,T,,M,0.000,N,0.000,K,A*3D
$GPGGA,024201.000,2306.7040,N,11424.5540,E,1,7,1.17,106.4,M,-1.5,M,,*41
$GPGSA,A,3,07,03,11,13,23,19,16,,,,,,1.49,1.17,0.92*0A
$GPGSV,3,1,11,19,84,330,41,03,54,025,39,13,46,271,40,23,42,220,38*79
$GPGSV,3,2,11,11,38,181,39,16,31,049,37,07,31,326,38,193,,,34*78
$GPGSV,3,3,11,06,,,37,01,,,34,31,,,33*7F
$GPRMC,024201.000,A,2306.7040,N,11424.5540,E,0.000,0.00,050912,,,A*56
$GPVTG,0.00,T,,M,0.000,N,0.000,K,A*3D
$GPGGA,024202.000,2306.7040,N,11424.5540,E,1,7,1.17,106.4,M,-1.5,M,,*42
$GPGSA,A,3,07,03,11,13,23,19,16,,,,,,1.49,1.17,0.92*0A
$GPGSV,3,1,11,19,84,330,41,03,54,025,40,13,46,271,40,23,42,220,38*77
$GPGSV,3,2,11,11,38,181,39,16,31,049,37,07,31,326,38,193,,,34*78
$GPGSV,3,3,11,06,,,37,01,,,34,31,,,33*7F
$GPRMC,024202.000,A,2306.7040,N,11424.5540,E,0.000,0.00,050912,,,A*55
$GPVTG,0.00,T,,M,0.000,N,0.000,K,A*3D
$GPGGA,024203.000,2306.7040,N,11424.5540,E,1,7,1.17,106.4,M,-1.5,M,,*43
$GPGSA,A,3,07,03,11,13,23,19,16,,,,,,1.49,1.17,0.92*0A
$GPGSV,3,1,11,19,84,330,41,03,54,025,40,13,46,271,40,23,42,220,38*77
$GPGSV,3,2,11,11,38,181,39,16,31,049,38,07,31,326,38,193,,,34*77
$GPGSV,3,3,11,06,,,37,01,,,34,31,,,34*78
$GPRMC,024203.000,A,2306.7040,N,11424.5540,E,0.000,0.00,050912,,,A*54
$GPVTG,0.00,T,,M,0.000,N,0.000,K,A*3D
$GPGGA,024204.000,2306.7040,N,11424.5540,E,1,8,1.12,106.4,M,-1.5,M,,*4E
$GPGSA,A,3,07,03,11,13,23,19,16,06,,,,,1.45,1.12,0.92*05
$GPGSV,3,1,11,19,84,330,41,03,54,025,40,13,46,271,40,23,42,220,38*77
$GPGSV,3,2,11,11,38,181,38,06,38,035,37,16,31,049,38,07,31,326,38*75
$GPGSV,3,3,11,193,,,34,01,,,34,31,,,34*46
$GPRMC,024204.000,A,2306.7040,N,11424.5540,E,0.000,0.00,050912,,,A*53
$GPVTG,0.00,T,,M,0.000,N,0.000,K,A*3D
$GPGGA,024205.000,2306.7040,N,11424.5540,E,1,8,1.12,106.4,M,-1.5,M,,*4F
$GPGSA,A,3,07,03,11,13,23,19,16,06,,,,,1.45,1.12,0.92*05
$GPGSV,3,1,11,19,84,330,41,03,54,025,40,13,46,271,40,23,42,220,38*77
$GPGSV,3,2,11,11,38,181,38,06,38,035,37,16,31,049,38,07,31,326,38*75
$GPGSV,3,3,11,193,,,34,01,,,34,31,,,33*41
$GPRMC,024205.000,A,2306.7040,N,11424.5540,E,0.000,0.00,050912,,,A*52
$GPVTG,0.00,T,,M,0.000,N,0.000,K,A*3D
$GPGGA,024206.000,2306.7040,N,11424.5540,E,1,8,1.12,106.4,M,-1.5,M,,*4C
$GPGSA,A,3,07,03,11,13,23,19,16,06,,,,,1.45,1.12,0.92*05
$GPGSV,3,1,11,19,84,330,41,03,54,025,40,13,46,271,40,23,42,220,38*77
$GPGSV,3,2,11,11,38,181,38,06,38,035,37,16,31,049,38,07,31,326,38*75
$GPGSV,3,3,11,193,,,34,01,,,34,31,,,33*41
$GPRMC,024206.000,A,2306.7040,N,11424.5540,E,0.000,0.00,050912,,,A*51
$GPVTG,0.00,T,,M,0.000,N,0.000,K,A*3D
$GPGGA,024207.000,2306.7040,N,11424.5540,E,1,8,1.12,106.4,M,-1.5,M,,*4D
$GPGSA,A,3,07,03,11,13,23,19,16,06,,,,,1.45,1.12,0.92*05
$GPGSV,3,1,11,19,84,330,41,03,54,025,40,13,46,271,40,23,42,220,38*77
$GPGSV,3,2,11,11,38,181,38,06,38,035,37,16,31,049,38,07,31,326,38*75
$GPGSV,3,3,11,193,,,34,01,,,34,31,,,33*41
$GPRMC,024207.000,A,2306.7040,N,11424.5540,E,0.000,0.00,050912,,,A*50
$GPVTG,0.00,T,,M,0.000,N,0.000,K,A*3D
$GPGGA,024208.000,2306.7040,N,11424.5540,E,1,8,1.12,106.4,M,-1.5,M,,*42
$GPGSA,A,3,07,03,11,13,23,19,16,06,,,,,1.45,1.12,0.92*05
$GPGSV,3,1,11,19,84,330,41,03,54,025,40,13,46,271,40,23,42,220,38*77
$GPGSV,3,2,11,11,38,181,38,06,38,035,37,16,31,049,38,07,31,326,38*75
$GPGSV,3,3,11,193,,,34,01,,,34,31,,,33*41
$GPRMC,024208.000,A,2306.7040,N,11424.5540,E,0.000,0.00,050912,,,A*5F
$GPVTG,0.00,T,,M,0.000,N,0.000,K,A*3D
$GPGGA,024209.000,2306.7040,N,11424.5540,E,1,8,1.12,106.4,M,-1.5,M,,*43
$GPGSA,A,3,07,03,11,13,23,19,16,06,,,,,2.64,1.12,2.39*06
$GPGSV,3,1,11,19,84,330,41,03,54,025,40,13,46,271,40,23,42,220,38*77
$GPGSV,3,2,11,11,38,181,38,06,38,035,37,16,31,049,38,07,31,326,38*75
$GPGSV,3,3,11,193,,,34,01,,,34,31,,,33*41
$GPRMC,024209.000,A,2306.7040,N,11424.5540,E,0.000,0.00,050912,,,A*5E
$GPVTG,0.00,T,,M,0.000,N,0.000,K,A*3D
$GPGGA,024210.000,2306.7040,N,11424.5540,E,1,8,1.12,106.4,M,-1.5,M,,*4B
$GPGSA,A,3,07,03,11,13,23,19,16,06,,,,,1.45,1.12,0.92*05
$GPGSV,3,1,11,19,84,330,41,03,54,025,40,13,46,271,40,23,42,220,39*76
$GPGSV,3,2,11,11,38,181,38,06,38,035,37,16,31,049,38,07,31,326,38*75
$GPGSV,3,3,11,193,,,34,01,,,34,31,,,33*41
$GPRMC,024210.000,A,2306.7040,N,11424.5540,E,0.000,0.00,050912,,,A*56
$GPVTG,0.00,T,,M,0.000,N,0.000,K,A*3D
$GPGGA,024211.000,2306.7040,N,11424.5540,E,1,8,1.12,106.4,M,-1.5,M,,*4A
$GPGSA,A,3,07,03,11,13,23,19,16,06,,,,,1.45,1.12,0.92*05
$GPGSV,3,1,11,19,84,330,41,03,54,025,40,13,46,271,40,23,42,220,39*76
$GPGSV,3,2,11,11,38,181,38,06,38,035,37,16,31,050,38,07,31,326,38*7D
$GPGSV,3,3,11,193,,,34,01,,,34,31,,,33*41
$GPRMC,024211.000,A,2306.7040,N,11424.5540,E,0.000,0.00,050912,,,A*57
$GPVTG,0.00,T,,M,0.000,N,0.000,K,A*3D
$GPGGA,024212.000,2306.7040,N,11424.5540,E,1,8,1.12,106.4,M,-1.5,M,,*49
$GPGSA,A,3,07,03,11,13,23,19,16,06,,,,,1.45,1.12,0.92*05
$GPGSV,3,1,11,19,84,330,41,03,54,025,40,13,46,271,40,23,42,220,39*76
$GPGSV,3,2,11,11,38,181,39,06,38,035,37,16,31,050,38,07,31,326,38*7C
$GPGSV,3,3,11,193,,,34,01,,,34,31,,,33*41
$GPRMC,024212.000,A,2306.7040,N,11424.5540,E,0.000,0.00,050912,,,A*54
$GPVTG,0.00,T,,M,0.000,N,0.000,K,A*3D
$GPGGA,024213.000,2306.7040,N,11424.5540,E,1,8,1.12,106.4,M,-1.5,M,,*48
$GPGSA,A,3,07,03,11,13,23,19,16,06,,,,,1.45,1.12,0.92*05
$GPGSV,3,1,11,19,84,330,41,03,54,025,40,13,46,271,40,23,42,220,39*76
$GPGSV,3,2,11,11,38,181,39,06,38,035,38,16,31,050,38,07,31,326,38*73
$GPGSV,3,3,11,193,,,34,01,,,34,31,,,33*41
$GPRMC,024213.000,A,2306.7040,N,11424.5540,E,0.000,0.00,050912,,,A*55
$GPVTG,0.00,T,,M,0.000,N,0.000,K,A*3D
$GPGGA,024214.000,2306.7040,N,11424.5540,E,1,8,1.12,106.4,M,-1.5,M,,*4F
$GPGSA,A,3,07,03,11,13,23,19,16,06,,,,,1.45,1.12,0.92*05
$GPGSV,3,1,11,19,83,331,41,03,54,025,40,13,46,271,40,23,42,220,39*70
$GPGSV,3,2,11,11,38,181,39,06,38,035,38,16,31,050,38,07,31,326,38*73
$GPGSV,3,3,11,193,,,34,01,,,34,31,,,33*41
$GPRMC,024214.000,A,2306.7040,N,11424.5540,E,0.000,0.00,050912,,,A*52
$GPVTG,0.00,T,,M,0.000,N,0.000,K,A*3D
$GPGGA,024215.000,2306.7040,N,11424.5540,E,1,8,1.12,106.4,M,-1.5,M,,*4E
$GPGSA,A,3,07,03,11,13,23,19,16,06,,,,,1.45,1.12,0.92*05
$GPGSV,3,1,11,19,83,331,41,03,54,025,40,13,46,271,40,23,42,220,39*70
$GPGSV,3,2,11,11,38,181,39,06,38,035,38,16,31,050,39,07,31,326,38*72
$GPGSV,3,3,11,193,,,34,01,,,34,31,,,32*40
$GPRMC,024215.000,A,2306.7040,N,11424.5540,E,0.000,0.00,050912,,,A*53
$GPVTG,0.00,T,,M,0.000,N,0.000,K,A*3D
$GPGGA,024216.000,2306.7040,N,11424.5540,E,1,8,1.12,106.4,M,-1.5,M,,*4D
$GPGSA,A,3,07,03,11,13,23,19,16,06,,,,,1.45,1.12,0.92*05
$GPGSV,3,1,11,19,83,331,41,03,54,025,40,13,46,271,40,23,42,220,39*70
$GPGSV,3,2,11,11,38,181,39,06,38,035,38,16,31,050,39,07,31,326,38*72
$GPGSV,3,3,11,193,,,35,01,,,34,31,,,31*42
$GPRMC,024216.000,A,2306.7040,N,11424.5540,E,0.000,0.00,050912,,,A*50
$GPVTG,0.00,T,,M,0.000,N,0.000,K,A*3D
$GPGGA,024217.000,2306.7040,N,11424.5540,E,1,8,1.12,106.4,M,-1.5,M,,*4C
$GPGSA,A,3,07,03,11,13,23,19,16,06,,,,,2.64,1.12,2.39*06
$GPGSV,3,1,11,19,83,331,41,03,54,025,40,13,46,271,40,23,42,220,39*70
$GPGSV,3,2,11,11,38,181,39,06,38,035,38,16,31,050,39,07,31,326,38*72
$GPGSV,3,3,11,193,,,35,01,,,34,31,,,31*42
$GPRMC,024217.000,A,2306.7040,N,11424.5540,E,0.000,0.00,050912,,,A*51
$GPVTG,0.00,T,,M,0.000,N,0.000,K,A*3D
$GPGGA,024218.000,2306.7040,N,11424.5540,E,1,8,1.12,106.4,M,-1.5,M,,*43
$GPGSA,A,3,07,03,11,13,23,19,16,06,,,,,1.45,1.12,0.92*05
$GPGSV,3,1,11,19,83,331,41,03,54,025,40,13,46,271,40,23,42,220,39*70
$GPGSV,3,2,11,11,38,181,39,06,38,035,38,16,31,050,39,07,31,326,38*72
$GPGSV,3,3,11,193,,,35,01,,,34,31,,,31*42
$GPRMC,024218.000,A,2306.7040,N,11424.5540,E,0.000,0.00,050912,,,A*5E
$GPVTG,0.00,T,,M,0.000,N,0.000,K,A*3D
$GPGGA,024219.000,2306.7040,N,11424.5540,E,1,8,1.12,106.4,M,-1.5,M,,*42
$GPGSA,A,3,07,03,11,13,23,19,16,06,,,,,1.45,1.12,0.92*05
$GPGSV,3,1,11,19,83,331,41,03,54,025,41,13,46,271,40,23,42,220,39*71
$GPGSV,3,2,11,11,38,181,39,06,38,035,38,16,31,050,39,07,31,326,38*72
$GPGSV,3,3,11,193,,,35,01,,,34,31,,,31*42
$GPRMC,024219.000,A,2306.7040,N,11424.5540,E,0.000,0.00,050912,,,A*5F
$GPVTG,0.00,T,,M,0.000,N,0.000,K,A*3D
$GPGGA,024220.000,2306.7040,N,11424.5540,E,1,8,1.12,106.4,M,-1.5,M,,*48
$GPGSA,A,3,07,03,11,13,23,19,16,06,,,,,2.64,1.12,2.39*06
$GPGSV,3,1,11,19,83,331,41,03,54,025,41,13,46,271,40,23,42,220,39*71
$GPGSV,3,2,11,11,38,181,39,06,38,035,38,16,31,050,39,07,31,326,38*72
$GPGSV,3,3,11,193,,,34,01,,,34,31,,,31*43
$GPRMC,024220.000,A,2306.7040,N,11424.5540,E,0.000,0.00,050912,,,A*55
$GPVTG,0.00,T,,M,0.000,N,0.000,K,A*3D
$GPGGA,024221.000,2306.7040,N,11424.5540,E,1,8,1.12,106.4,M,-1.5,M,,*49
$GPGSA,A,3,07,03,11,13,23,19,16,06,,,,,1.45,1.12,0.92*05
$GPGSV,3,1,11,19,83,331,41,03,54,025,41,13,46,271,40,23,42,220,39*71
$GPGSV,3,2,11,11,38,181,39,06,38,035,37,16,31,050,39,07,31,326,38*7D
$GPGSV,3,3,11,193,,,34,01,,,34,31,,,30*42
$GPRMC,024221.000,A,2306.7040,N,11424.5540,E,0.000,0.00,050912,,,A*54
$GPVTG,0.00,T,,M,0.000,N,0.000,K,A*3D
$GPGGA,024222.000,2306.7040,N,11424.5540,E,1,10,0.89,106.4,M,-1.5,M,,*70
$GPGSA,A,3,07,03,11,13,23,19,16,06,01,31,,,1.23,0.89,0.85*03
$GPGSV,3,1,11,19,83,331,41,03,54,025,41,13,46,271,40,23,42,220,39*71
$GPGSV,3,2,11,11,38,181,39,06,38,035,37,16,31,050,39,07,31,326,38*7D
$GPGSV,3,3,11,01,18,180,34,31,02,133,30,193,,,34*41
$GPRMC,024222.000,A,2306.7040,N,11424.5540,E,0.000,0.00,050912,,,A*57
$GPVTG,0.00,T,,M,0.000,N,0.000,K,A*3D
$GPGGA,024223.000,2306.7040,N,11424.5540,E,1,9,1.01,106.4,M,-1.5,M,,*48
$GPGSA,A,3,07,03,11,13,23,19,16,06,01,,,,1.35,1.01,0.89*0B
$GPGSV,3,1,11,19,83,331,41,03,54,025,41,13,46,271,40,23,42,220,39*71
$GPGSV,3,2,11,11,38,181,39,06,38,035,37,16,31,050,39,07,31,326,38*7D
$GPGSV,3,3,11,01,18,180,34,31,02,133,30,193,,,34*41
$GPRMC,024223.000,A,2306.7040,N,11424.5540,E,0.000,0.00,050912,,,A*56
$GPVTG,0.00,T,,M,0.000,N,0.000,K,A*3D
$GPGGA,024224.000,2306.7040,N,11424.5540,E,1,9,1.01,106.4,M,-1.5,M,,*4F
$GPGSA,A,3,07,03,11,13,23,19,16,06,01,,,,1.35,1.01,0.89*0B
$GPGSV,3,1,11,19,83,331,41,03,54,025,41,13,46,271,40,23,42,220,39*71
$GPGSV,3,2,11,11,38,181,39,06,38,035,37,16,31,050,39,07,31,326,38*7D
$GPGSV,3,3,11,01,18,180,34,31,02,133,31,193,,,34*40
$GPRMC,024224.000,A,2306.7040,N,11424.5540,E,0.000,0.00,050912,,,A*51
$GPVTG,0.00,T,,M,0.000,N,0.000,K,A*3D
$GPGGA,024225.000,2306.7040,N,11424.5540,E,1,9,1.01,106.4,M,-1.5,M,,*4E
$GPGSA,A,3,07,03,11,13,23,19,16,06,01,,,,1.35,1.01,0.89*0B
$GPGSV,3,1,11,19,83,331,41,03,54,025,41,13,46,271,40,23,42,220,39*71
$GPGSV,3,2,11,11,38,181,39,06,38,035,37,16,31,050,39,07,31,326,38*7D
$GPGSV,3,3,11,01,18,180,34,31,02,133,31,193,,,34*40
$GPRMC,024225.000,A,2306.7040,N,11424.5540,E,0.000,0.00,050912,,,A*50
$GPVTG,0.00,T,,M,0.000,N,0.000,K,A*3D
$GPGGA,024226.000,2306.7040,N,11424.5540,E,1,9,1.01,106.4,M,-1.5,M,,*4D
$GPGSA,A,3,07,03,11,13,23,19,16,06,01,,,,1.35,1.01,0.89*0B
$GPGSV,3,1,11,19,83,331,41,03,54,025,41,13,46,271,40,23,42,220,39*71
$GPGSV,3,2,11,11,38,181,39,06,38,035,37,16,31,050,39,07,31,326,38*7D
$GPGSV,3,3,11,01,18,180,34,31,02,133,31,193,,,34*40
$GPRMC,024226.000,A,2306.7040,N,11424.5540,E,0.000,0.00,050912,,,A*53
$GPVTG,0.00,T,,M,0.000,N,0.000,K,A*3D
$GPGGA,024227.000,2306.7040,N,11424.5540,E,1,9,1.01,106.4,M,-1.5,M,,*4C
$GPGSA,A,3,07,03,11,13,23,19,16,06,01,,,,1.35,1.01,0.89*0B
$GPGSV,3,1,11,19,83,331,41,03,54,025,40,13,46,271,40,23,42,220,39*70
$GPGSV,3,2,11,11,38,181,39,06,38,035,37,16,31,050,39,07,31,326,38*7D
$GPGSV,3,3,11,01,18,180,34,31,02,133,31,193,,,34*40
$GPRMC,024227.000,A,2306.7040,N,11424.5540,E,0.000,0.00,050912,,,A*52
$GPVTG,0.00,T,,M,0.000,N,0.000,K,A*3D
$GPGGA,024228.000,2306.7040,N,11424.5540,E,1,10,0.89,106.4,M,-1.5,M,,*7A
$GPGSA,A,3,07,03,11,13,23,19,16,06,01,193,,,1.26,0.89,0.89*33
$GPGSV,3,1,11,19,83,331,41,03,54,025,40,13,46,271,40,23,42,220,39*70
$GPGSV,3,2,11,11,38,181,39,06,38,035,37,193,36,130,34,16,31,050,39*4F
$GPGSV,3,3,11,07,31,326,38,01,18,180,34,31,02,133,31*45
$GPRMC,024228.000,A,2306.7040,N,11424.5540,E,0.000,0.00,050912,,,A*5D
$GPVTG,0.00,T,,M,0.000,N,0.000,K,A*3D
$GPGGA,024229.000,2306.7040,N,11424.5540,E,1,10,0.89,106.4,M,-1.5,M,,*7B
$GPGSA,A,3,07,03,11,13,23,19,16,06,01,193,,,1.26,0.89,0.89*33
$GPGSV,3,1,11,19,83,331,41,03,54,025,40,13,46,271,40,23,42,220,39*70
$GPGSV,3,2,11,11,38,181,39,06,38,035,37,193,36,130,34,16,31,050,39*4F
$GPGSV,3,3,11,07,31,326,38,01,18,180,34,31,02,133,31*45
$GPRMC,024229.000,A,2306.7040,N,11424.5540,E,0.000,0.00,050912,,,A*5C
$GPVTG,0.00,T,,M,0.000,N,0.000,K,A*3D
$GPGGA,024230.000,2306.7040,N,11424.5540,E,1,10,0.89,106.4,M,-1.5,M,,*73
$GPGSA,A,3,07,03,11,13,23,19,16,06,01,193,,,1.26,0.89,0.89*33
$GPGSV,3,1,11,19,83,331,41,03,54,025,40,13,46,271,40,23,42,220,39*70
$GPGSV,3,2,11,11,38,181,39,06,38,035,37,193,36,130,34,16,31,050,39*4F
$GPGSV,3,3,11,07,31,326,38,01,18,180,34,31,02,133,30*44
$GPRMC,024230.000,A,2306.7040,N,11424.5540,E,0.000,0.00,050912,,,A*54
$GPVTG,0.00,T,,M,0.000,N,0.000,K,A*3D
$GPGGA,024231.000,2306.7040,N,11424.5540,E,1,10,0.89,106.4,M,-1.5,M,,*72
$GPGSA,A,3,07,03,11,13,23,19,16,06,01,193,,,1.26,0.89,0.89*33
$GPGSV,3,1,11,19,83,331,41,03,54,025,40,13,46,271,40,23,42,220,39*70
$GPGSV,3,2,11,11,38,181,39,06,38,035,37,193,36,130,34,16,31,050,39*4F
$GPGSV,3,3,11,07,31,326,38,01,18,180,34,31,02,133,29*4C
$GPRMC,024231.000,A,2306.7040,N,11424.5540,E,0.000,0.00,050912,,,A*55
$GPVTG,0.00,T,,M,0.000,N,0.000,K,A*3D
$GPGGA,024232.000,2306.7040,N,11424.5540,E,1,10,0.89,106.4,M,-1.5,M,,*71
$GPGSA,A,3,07,03,11,13,23,19,16,06,01,193,,,1.26,0.89,0.89*33
$GPGSV,3,1,11,19,83,331,41,03,54,025,40,13,46,271,40,23,42,220,39*70
$GPGSV,3,2,11,11,38,181,39,06,38,035,37,193,36,130,34,16,31,050,39*4F
$GPGSV,3,3,11,07,31,326,38,01,18,180,34,31,02,133,28*4D
$GPRMC,024232.000,A,2306.7040,N,11424.5540,E,0.000,0.00,050912,,,A*56
$GPVTG,0.00,T,,M,0.000,N,0.000,K,A*3D
$GPGGA,024233.000,2306.7040,N,11424.5540,E,1,10,0.89,106.4,M,-1.5,M,,*70
$GPGSA,A,3,07,03,11,13,23,19,16,06,01,193,,,1.26,0.89,0.89*33
$GPGSV,3,1,11,19,83,331,41,03,54,025,40,13,46,271,40,23,42,220,39*70
$GPGSV,3,2,11,11,38,181,39,06,38,035,37,193,36,130,34,16,31,050,39*4F
$GPGSV,3,3,11,07,31,326,38,01,18,180,34,31,02,133,27*42
$GPRMC,024233.000,A,2306.7040,N,11424.5540,E,0.000,0.00,050912,,,A*57
$GPVTG,0.00,T,,M,0.000,N,0.000,K,A*3D
$GPGGA,024234.000,2306.7040,N,11424.5540,E,1,10,0.89,106.4,M,-1.5,M,,*77
$GPGSA,A,3,07,03,11,13,23,19,16,06,01,193,,,1.26,0.89,0.89*33
$GPGSV,3,1,11,19,83,331,41,03,54,025,40,13,46,271,40,23,42,220,39*70
$GPGSV,3,2,11,11,38,181,39,06,38,035,37,193,36,130,34,16,31,050,39*4F
$GPGSV,3,3,11,07,31,326,38,01,18,180,34,31,02,133,26*43
$GPRMC,024234.000,A,2306.7040,N,11424.5540,E,0.000,0.00,050912,,,A*50
$GPVTG,0.00,T,,M,0.000,N,0.000,K,A*3D
$GPGGA,024235.000,2306.7040,N,11424.5540,E,1,10,0.91,106.4,M,-1.5,M,,*7F
$GPGSA,A,3,07,03,11,13,23,19,16,06,01,193,,,2.13,0.91,1.92*34
$GPGSV,3,1,11,19,83,331,41,03,54,025,40,13,46,271,40,23,42,220,39*70
$GPGSV,3,2,11,11,38,181,39,06,38,035,37,193,36,130,35,16,31,050,39*4E
$GPGSV,3,3,11,07,31,326,38,01,18,180,34,31,02,133,26*43
$GPRMC,024235.000,A,2306.7040,N,11424.5540,E,0.000,0.00,050912,,,A*51
$GPVTG,0.00,T,,M,0.000,N,0.000,K,A*3D
$GPGGA,024236.000,2306.7040,N,11424.5540,E,1,10,0.91,106.4,M,-1.5,M,,*7C
$GPGSA,A,3,07,03,11,13,23,19,16,06,01,193,,,2.13,0.91,1.92*34
$GPGSV,3,1,11,19,83,331,41,03,54,025,40,13,46,271,40,23,42,220,39*70
$GPGSV,3,2,11,11,38,181,39,06,38,035,37,193,36,130,35,16,31,050,39*4E
$GPGSV,3,3,11,07,31,326,38,01,18,180,34,31,02,133,26*43
$GPRMC,024236.000,A,2306.7040,N,11424.5540,E,0.000,0.00,050912,,,A*52
$GPVTG,0.00,T,,M,0.000,N,0.000,K,A*3D
$GPGGA,024237.000,2306.7040,N,11424.5540,E,1,10,0.91,106.4,M,-1.5,M,,*7D
$GPGSA,A,3,07,03,11,13,23,19,16,06,01,193,,,2.13,0.91,1.92*34
$GPGSV,3,1,11,19,83,331,40,03,54,025,40,13,46,271,39,23,42,220,39*7F
$GPGSV,3,2,11,11,38,181,38,06,38,035,36,193,36,130,34,16,31,050,38*4E
$GPGSV,3,3,11,07,31,326,37,01,18,180,34,31,02,133,27*4D
$GPRMC,024237.000,A,2306.7040,N,11424.5540,E,0.000,0.00,050912,,,A*53
$GPVTG,0.00,T,,M,0.000,N,0.000,K,A*3D
$GPGGA,024238.000,2306.7040,N,11424.5540,E,1,10,0.91,106.4,M,-1.5,M,,*72
$GPGSA,A,3,07,03,11,13,23,19,16,06,01,193,,,2.13,0.91,1.92*34
$GPGSV,3,1,11,19,83,331,41,03,54,025,40
$GPGGA,024436.000,2306.7040,N,11424.5540,E,1,9,0.95,106.4,M,-1.5,M,,*46
$GPGSA,A,3,07,03,11,13,23,19,16,06,193,,,,2.60,0.95,2.42*3B
$GPGSV,3,1,11,19,83,337,39,03,53,025,39,13,45,269,37,23,41,219,37*7D
$GPGSV,3,2,11,11,39,181,37,06,37,035,34,193,37,130,34,07,32,326,36*43
$GPGSV,3,3,11,16,31,050,36,31,02,133,29,30,,,21*76
$GPRMC,024436.000,A,2306.7040,N,11424.5540,E,0.000,0.00,050912,,,A*54
$GPVTG,0.00,T,,M,0.000,N,0.000,K,A*3D
$GPGGA,024437.000,2306.7040,N,11424.5540,E,1,9,0.95,106.4,M,-1.5,M,,*47
$GPGSA,A,3,07,03,11,13,23,19,16,06,193,,,,2.60,0.95,2.42*3B
$GPGSV,3,1,11,19,83,337,39,03,53,025,39,13,45,269,37,23,41,219,37*7D
$GPGSV,3,2,11,11,39,181,37,06,37,035,34,193,37,130,34,07,32,326,36*43
$GPGSV,3,3,11,16,30,051,36,31,02,133,28,30,,,21*77
$GPRMC,024437.000,A,2306.7040,N,11424.5540,E,0.000,0.00,050912,,,A*55
$GPVTG,0.00,T,,M,0.000,N,0.000,K,A*3D
$GPGGA,024438.000,2306.7040,N,11424.5540,E,1,9,0.96,106.4,M,-1.5,M,,*4B
$GPGSA,A,3,07,03,11,13,23,19,16,06,193,,,,2.60,0.96,2.42*38
$GPGSV,3,1,11,19,83,337,39,03,53,025,39,13,45,269,37,23,41,219,37*7D
$GPGSV,3,2,11,11,39,181,37,06,37,035,34,193,37,130,34,07,32,326,36*43
$GPGSV,3,3,11,16,30,051,36,31,02,133,27,30,,,21*78
$GPRMC,024438.000,A,2306.7040,N,11424.5540,E,0.000,0.00,050912,,,A*5A
$GPVTG,0.00,T,,M,0.000,N,0.000,K,A*3D
$GPGGA,024439.000,2306.7040,N,11424.5540,E,1,9,0.95,106.4,M,-1.5,M,,*49
$GPGSA,A,3,07,03,11,13,23,19,16,06,193,,,,2.60,0.95,2.42*3B
$GPGSV,3,1,11,19,83,337,39,03,53,025,39,13,45,269,37,23,41,219,37*7D
$GPGSV,3,2,11,11,39,181,37,06,37,035,34,193,37,130,34,07,32,326,36*43
$GPGSV,3,3,11,16,30,051,36,31,02,133,27,30,,,21*78
$GPRMC,024439.000,A,2306.7040,N,11424.5540,E,0.000,0.00,050912,,,A*5B
$GPVTG,0.00,T,,M,0.000,N,0.000,K,A*3D
$GPGGA,024440.000,2306.7040,N,11424.5540,E,1,9,0.95,106.4,M,-1.5,M,,*47
$GPGSA,A,3,07,03,11,13,23,19,16,06,193,,,,2.60,0.95,2.42*3B
$GPGSV,3,1,11,19,82,338,39,03,53,025,39,13,45,269,37,23,41,219,37*73
$GPGSV,3,2,11,11,39,181,37,06,37,035,34,193,37,130,34,07,32,326,36*43
$GPGSV,3,3,11,16,30,051,36,31,02,133,27,30,,,21*78
$GPRMC,024440.000,A,2306.7040,N,11424.5540,E,0.000,0.00,050912,,,A*55
$GPVTG,0.00,T,,M,0.000,N,0.000,K,A*3D
$GPGGA,024441.000,2306.7040,N,11424.5540,E,1,9,0.95,106.4,M,-1.5,M,,*46
$GPGSA,A,3,07,03,11,13,23,19,16,06,193,,,,2.60,0.95,2.42*3B
$GPGSV,3,1,11,19,82,338,39,03,53,025,39,13,45,269,37,23,41,219,37*73
$GPGSV,3,2,11,11,39,181,37,06,37,035,34,193,37,130,34,07,32,326,36*43
$GPGSV,3,3,11,16,30,051,36,31,02,133,27,30,,,21*78
$GPRMC,024441.000,A,2306.7040,N,11424.5540,E,0.000,0.00,050912,,,A*54
$GPVTG,0.00,T,,M,0.000,N,0.000,K,A*3D
$GPGGA,024442.000,2306.7040,N,11424.5540,E,1,9,0.95,106.4,M,-1.5,M,,*45
$GPGSA,A,3,07,03,11,13,23,19,16,06,193,,,,2.60,0.95,2.42*3B
$GPGSV,3,1,11,19,82,338,40,03,53,025,39,13,45,269,37,23,41,219,37*7D
$GPGSV,3,2,11,11,39,181,37,06,37,035,35,193,37,130,34,07,32,326,36*42
$GPGSV,3,3,11,16,30,051,36,31,02,133,27,30,,,21*78
$GPRMC,024442.000,A,2306.7040,N,11424.5540,E,0.000,0.00,050912,,,A*57
$GPVTG,0.00,T,,M,0.000,N,0.000,K,A*3D
$GPGGA,024443.000,2306.7040,N,11424.5540,E,1,9,0.95,106.4,M,-1.5,M,,*44
$GPGSA,A,3,07,03,11,13,23,19,16,06,193,,,,2.60,0.95,2.42*3B
$GPGSV,3,1,11,19,82,338,40,03,53,025,39,13,45,269,37,23,41,219,37*7D
$GPGSV,3,2,11,11,39,181,37,06,37,035,35,193,37,130,34,07,32,326,36*42
$GPGSV,3,3,11,16,30,051,36,31,02,133,27,30,,,21*78
$GPRMC,024443.000,A,2306.7040,N,11424.5540,E,0.000,0.00,050912,,,A*56
$GPVTG,0.00,T,,M,0.000,N,0.000,K,A*3D
$GPGGA,024444.000,2306.7040,N,11424.5540,E,1,9,0.95,106.4,M,-1.5,M,,*43
$GPGSA,A,3,07,03,11,13,23,19,16,06,193,,,,2.60,0.95,2.42*3B
$GPGSV,3,1,11,19,82,338,40,03,53,025,39,13,45,269,37,23,41,219,37*7D
$GPGSV,3,2,11,11,39,181,37,06,37,035,35,193,37,130,34,07,32,326,36*42
$GPGSV,3,3,11,16,30,051,36,31,02,133,27,30,,,21*78
$GPRMC,024444.000,A,2306.7040,N,11424.5540,E,0.000,0.00,050912,,,A*51
$GPVTG,0.00,T,,M,0.000,N,0.000,K,A*3D
$GPGGA,024445.000,2306.7040,N,11424.5540,E,1,9,0.95,106.4,M,-1.5,M,,*42
$GPGSA,A,3,07,03,11,13,23,19,16,06,193,,,,2.60,0.95,2.42*3B
$GPGSV,3,1,11,19,82,338,40,03,53,025,39,13,45,269,37,23,41,219,37*7D
$GPGSV,3,2,11,11,39,181,37,06,37,035,35,193,37,130,33,07,32,326,36*45
$GPGSV,3,3,11,16,30,051,36,31,02,133,27,30,,,21*78
$GPRMC,024445.000,A,2306.7040,N,11424.5540,E,0.000,0.00,050912,,,A*50
$GPVTG,0.00,T,,M,0.000,N,0.000,K,A*3D
$GPGGA,024446.000,2306.7040,N,11424.5540,E,1,9,0.95,106.4,M,-1.5,M,,*41
$GPGSA,A,3,07,03,11,13,23,19,16,06,193,,,,2.60,0.95,2.42*3B
$GPGSV,3,1,11,19,82,338,40,03,53,025,39,13,45,269,37,23,41,219,36*7C
$GPGSV,3,2,11,11,39,181,37,06,37,035,35,193,37,130,33,07,32,326,36*45
$GPGSV,3,3,11,16,30,051,36,31,02,133,27,30,,,21*78
$GPRMC,024446.000,A,2306.7040,N,11424.5540,E,0.000,0.00,050912,,,A*53
$GPVTG,0.00,T,,M,0.000,N,0.000,K,A*3D
$GPGGA,024447.000,2306.7040,N,11424.5540,E,1,9,0.95,106.4,M,-1.5,M,,*40
$GPGSA,A,3,07,03,11,13,23,19,16,06,193,,,,2.60,0.95,2.42*3B
$GPGSV,3,1,11,19,82,338,40,03,53,025,39,13,45,269,37,23,41,219,36*7C
$GPGSV,3,2,11,11,39,181,37,06,37,035,35,193,37,130,33,07,32,326,36*45
$GPGSV,3,3,11,16,30,051,36,31,02,133,27,30,,,21*78
$GPRMC,024447.000,A,2306.7040,N,11424.5540,E,0.000,0.00,050912,,,A*52
$GPVTG,0.00,T,,M,0.000,N,0.000,K,A*3D
$GPGGA,024448.000,2306.7040,N,11424.5540,E,1,9,0.95,106.4,M,-1.5,M,,*4F
$GPGSA,A,3,07,03,11,13,23,19,16,06,193,,,,2.60,0.95,2.42*3B
$GPGSV,3,1,11,19,82,338,38,03,53,025,38,13,45,269,36,23,41,219,35*70
$GPGSV,3,2,11,11,39,181,36,06,37,035,33,193,37,130,32,07,32,326,35*40
$GPGSV,3,3,11,16,30,051,34,31,02,133,25,30,,,21*78
$GPRMC,024448.000,A,2306.7040,N,11424.5540,E,0.000,0.00,050912,,,A*5D
$GPVTG,0.00,T,,M,0.000,N,0.000,K,A*3D
$GPGGA,024449.000,2306.7040,N,11424.5540,E,1,9,0.95,106.4,M,-1.5,M,,*4E
$GPGSA,A,3,07,03,11,13,23,19,16,06,193,,,,2.60,0.95,2.42*3B
$GPGSV,3,1,11,19,82,338,37,03,53,025,36,13,45,269,35,23,41,219,33*74
$GPGSV,3,2,11,11,39,181,34,06,37,035,31,193,37,130,25,07,32,326,28*4A
$GPGSV,3,3,11,16,30,051,32,31,02,133,23,30,,,19*73
$GPRMC,024449.000,A,2306.7040,N,11424.5540,E,0.000,0.00,050912,,,A*5C
$GPVTG,0.00,T,,M,0.000,N,0.000,K,A*3D
$GPGGA,024450.000,2306.7040,N,11424.5540,E,1,9,0.96,106.4,M,-1.5,M,,*45
$GPGSA,A,3,07,03,11,13,23,19,16,06,193,,,,2.60,0.96,2.42*38
$GPGSV,3,1,11,19,82,338,36,03,53,025,35,13,45,269,34,23,41,219,32*76
$GPGSV,3,2,11,11,39,181,33,06,37,035,31,193,37,130,27,07,32,326,29*4E
$GPGSV,3,3,11,16,30,051,31,31,02,133,22,30,,,18*70
$GPRMC,024450.000,A,2306.7040,N,11424.5540,E,0.000,0.00,050912,,,A*54
$GPVTG,0.00,T,,M,0.000,N,0.000,K,A*3D
$GPGGA,024451.000,2306.7040,N,11424.5540,E,1,9,0.96,106.4,M,-1.5,M,,*44
$GPGSA,A,3,07,03,11,13,23,19,16,06,193,,,,2.60,0.96,2.42*38
$GPGSV,3,1,11,19,82,338,36,03,53,025,34,13,45,269,33,23,41,219,31*73
$GPGSV,3,2,11,11,39,181,32,06,37,035,30,193,37,130,27,07,32,326,29*4E
$GPGSV,3,3,11,16,30,051,31,31,02,133,21,30,,,18*73
$GPRMC,024451.000,B,2306.7040,N,11424.5540,E,0.000,0.00,050912,,,A*55
$GPVTG,0.00,T,,M,0.000,N,0.000,K,A*3D
$GPGGA,024452.000,2306.7040,N,11424.5540,E,1,9,0.95,106.4,M,-1.5,M,,*44
$GPGSA,A,3,07,03,11,13,23,19,16,06,193,,,,2.60,0.95,2.42*3B
$GPGSV,3,1,11,19,82,338,35,03,53,025,34,13,45,269,32,23,41,219,31*71
$GPGSV,3,2,11,11,39,181,31,06,37,035,29,193,37,130,27,07,32,326,29*45
$GPGSV,3,3,11,16,30,051,31,31,02,133,20,30,,,18*72
$GPRMC,024452.000,A,2306.7040,N,11424.5540,E,0.000,0.00,050913,,A*56
$GPVTG,0.00,T,,M,0.000,N,0.000,K,A*3D
